[
    {
        "plateNumber": "01",
        "name": "ADANA",
        "lat": "37.00000000",
        "lon": "35.32133330"
    },
    {
        "plateNumber": "02",
        "name": "ADIYAMAN",
        "lat": "37.76416670",
        "lon": "38.27616670"
    },
    {
        "plateNumber": "03",
        "name": "AFYONKARAHİSAR",
        "lat": "38.76376000",
        "lon": "30.54034000"
    },
    {
        "plateNumber": "04",
        "name": "AĞRI",
        "lat": "39.72166670",
        "lon": "43.05666670"
    },
    {
        "plateNumber": "05",
        "name": "AMASYA",
        "lat": "40.65000000",
        "lon": "35.83333330"
    },
    {
        "plateNumber": "06",
        "name": "ANKARA",
        "lat": "39.92077000",
        "lon": "32.85411000"
    },
    {
        "plateNumber": "07",
        "name": "ANTALYA",
        "lat": "36.88414000",
        "lon": "30.70563000"
    },
    {
        "plateNumber": "08",
        "name": "ARTVİN",
        "lat": "41.18333330",
        "lon": "41.81666670"
    },
    {
        "plateNumber": "09",
        "name": "AYDIN",
        "lat": "37.84440000",
        "lon": "27.84580000"
    },
    {
        "plateNumber": "10",
        "name": "BALIKESİR",
        "lat": "39.64836900",
        "lon": "27.88261000"
    },
    {
        "plateNumber": "11",
        "name": "BİLECİK",
        "lat": "40.15013100",
        "lon": "29.98306100"
    },
    {
        "plateNumber": "12",
        "name": "BİNGÖL",
        "lat": "38.88534900",
        "lon": "40.49829100"
    },
    {
        "plateNumber": "13",
        "name": "BİTLİS",
        "lat": "38.40000000",
        "lon": "42.11666670"
    },
    {
        "plateNumber": "14",
        "name": "BOLU",
        "lat": "40.73947900",
        "lon": "31.61156100"
    },
    {
        "plateNumber": "15",
        "name": "BURDUR",
        "lat": "37.72690900",
        "lon": "30.28887600"
    },
    {
        "plateNumber": "16",
        "name": "BURSA",
        "lat": "40.18257000",
        "lon": "29.06687000"
    },
    {
        "plateNumber": "17",
        "name": "ÇANAKKALE",
        "lat": "40.15531200",
        "lon": "26.41416000"
    },
    {
        "plateNumber": "18",
        "name": "ÇANKIRI",
        "lat": "40.60000000",
        "lon": "33.61666670"
    },
    {
        "plateNumber": "19",
        "name": "ÇORUM",
        "lat": "40.55055560",
        "lon": "34.95555560"
    },
    {
        "plateNumber": "20",
        "name": "DENİZLİ",
        "lat": "37.77652000",
        "lon": "29.08639000"
    },
    {
        "plateNumber": "21",
        "name": "DİYARBAKIR",
        "lat": "37.91441000",
        "lon": "40.23062900"
    },
    {
        "plateNumber": "22",
        "name": "EDİRNE",
        "lat": "41.66666670",
        "lon": "26.56666670"
    },
    {
        "plateNumber": "23",
        "name": "ELAZIĞ",
        "lat": "38.68096900",
        "lon": "39.22639800"
    },
    {
        "plateNumber": "24",
        "name": "ERZİNCAN",
        "lat": "39.75000000",
        "lon": "39.50000000"
    },
    {
        "plateNumber": "25",
        "name": "ERZURUM",
        "lat": "39.90431890",
        "lon": "41.26788530"
    },
    {
        "plateNumber": "26",
        "name": "ESKİŞEHİR",
        "lat": "39.78430200",
        "lon": "30.51922000"
    },
    {
        "plateNumber": "27",
        "name": "GAZİANTEP",
        "lat": "37.06622000",
        "lon": "37.38332000"
    },
    {
        "plateNumber": "28",
        "name": "GİRESUN",
        "lat": "40.91281100",
        "lon": "38.38953000"
    },
    {
        "plateNumber": "29",
        "name": "GÜMÜŞHANE",
        "lat": "40.46027780",
        "lon": "39.48138890"
    },
    {
        "plateNumber": "30",
        "name": "HAKKARİ",
        "lat": "37.58333330",
        "lon": "43.73333330"
    },
    {
        "plateNumber": "31",
        "name": "HATAY",
        "lat": "36.40184880",
        "lon": "36.34980970"
    },
    {
        "plateNumber": "32",
        "name": "ISPARTA",
        "lat": "37.76666670",
        "lon": "30.55000000"
    },
    {
        "plateNumber": "33",
        "name": "MERSİN",
        "lat": "36.80000000",
        "lon": "34.6333333"
    },
    {
        "plateNumber": "34",
        "name": "İSTANBUL",
        "lat": "41.00527000",
        "lon": "28.97696000"
    },
    {
        "plateNumber": "35",
        "name": "İZMİR",
        "lat": "38.41885000",
        "lon": "27.12872000"
    },
    {
        "plateNumber": "36",
        "name": "KARS",
        "lat": "40.59267000",
        "lon": "43.07783100"
    },
    {
        "plateNumber": "37",
        "name": "KASTAMONU",
        "lat": "41.38871000",
        "lon": "33.78273000"
    },
    {
        "plateNumber": "38",
        "name": "KAYSERİ",
        "lat": "38.73333330",
        "lon": "35.48333330"
    },
    {
        "plateNumber": "39",
        "name": "KIRKLARELİ",
        "lat": "41.73333330",
        "lon": "27.21666670"
    },
    {
        "plateNumber": "40",
        "name": "KIRŞEHİR",
        "lat": "39.15000000",
        "lon": "34.16666670"
    },
    {
        "plateNumber": "41",
        "name": "KOCAELİ",
        "lat": "40.85327040",
        "lon": "29.88152030"
    },
    {
        "plateNumber": "42",
        "name": "KONYA",
        "lat": "37.86666670",
        "lon": "32.48333330"
    },
    {
        "plateNumber": "43",
        "name": "KÜTAHYA",
        "lat": "39.41666670",
        "lon": "29.98333330"
    },
    {
        "plateNumber": "44",
        "name": "MALATYA",
        "lat": "38.35519000",
        "lon": "38.30946000"
    },
    {
        "plateNumber": "45",
        "name": "MANİSA",
        "lat": "38.61909900",
        "lon": "27.42892100"
    },
    {
        "plateNumber": "46",
        "name": "KAHRAMANMARAŞ",
        "lat": "37.58333330",
        "lon": "36.93333330"
    },
    {
        "plateNumber": "47",
        "name": "MARDİN",
        "lat": "37.31223610",
        "lon": "40.73511200"
    },
    {
        "plateNumber": "48",
        "name": "MUĞLA",
        "lat": "37.21527780",
        "lon": "28.36361110"
    },
    {
        "plateNumber": "49",
        "name": "MUŞ",
        "lat": "38.74329260",
        "lon": "41.50648230"
    },
    {
        "plateNumber": "50",
        "name": "NEVŞEHİR",
        "lat": "38.62442000",
        "lon": "34.72396900"
    },
    {
        "plateNumber": "51",
        "name": "NİĞDE",
        "lat": "37.96666670",
        "lon": "34.68333330"
    },
    {
        "plateNumber": "52",
        "name": "ORDU",
        "lat": "40.98333330",
        "lon": "37.88333330"
    },
    {
        "plateNumber": "53",
        "name": "RİZE",
        "lat": "41.02005000",
        "lon": "40.52344900"
    },
    {
        "plateNumber": "54",
        "name": "SAKARYA",
        "lat": "40.75687930",
        "lon": "30.37813800"
    },
    {
        "plateNumber": "55",
        "name": "SAMSUN",
        "lat": "41.29278200",
        "lon": "36.33128000"
    },
    {
        "plateNumber": "56",
        "name": "SİİRT",
        "lat": "37.94429000",
        "lon": "41.93288000"
    },
    {
        "plateNumber": "57",
        "name": "SİNOP",
        "lat": "42.02642220",
        "lon": "35.15507450"
    },
    {
        "plateNumber": "58",
        "name": "SİVAS",
        "lat": "39.74766200",
        "lon": "37.01787900"
    },
    {
        "plateNumber": "59",
        "name": "TEKİRDAĞ",
        "lat": "40.98333330",
        "lon": "27.51666670"
    },
    {
        "plateNumber": "60",
        "name": "TOKAT",
        "lat": "40.31666670",
        "lon": "36.55000000"
    },
    {
        "plateNumber": "61",
        "name": "TRABZON",
        "lat": "41.00000000",
        "lon": "39.73333330"
    },
    {
        "plateNumber": "62",
        "name": "TUNCELİ",
        "lat": "39.10798680",
        "lon": "39.54016720"
    },
    {
        "plateNumber": "63",
        "name": "ŞANLIURFA",
        "lat": "37.15000000",
        "lon": "38.80000000"
    },
    {
        "plateNumber": "64",
        "name": "UŞAK",
        "lat": "38.68230100",
        "lon": "29.40819000"
    },
    {
        "plateNumber": "65",
        "name": "VAN",
        "lat": "38.49416670",
        "lon": "43.38000000"
    },
    {
        "plateNumber": "66",
        "name": "YOZGAT",
        "lat": "39.82000000",
        "lon": "34.80444440"
    },
    {
        "plateNumber": "67",
        "name": "ZONGULDAK",
        "lat": "41.45640900",
        "lon": "31.79873100"
    },
    {
        "plateNumber": "68",
        "name": "AKSARAY",
        "lat": "38.36869000",
        "lon": "34.03698000"
    },
    {
        "plateNumber": "69",
        "name": "BAYBURT",
        "lat": "40.25516900",
        "lon": "40.22488000"
    },
    {
        "plateNumber": "70",
        "name": "KARAMAN",
        "lat": "37.17593000",
        "lon": "33.22874800"
    },
    {
        "plateNumber": "71",
        "name": "KIRIKKALE",
        "lat": "39.84682100",
        "lon": "33.51525100"
    },
    {
        "plateNumber": "72",
        "name": "BATMAN",
        "lat": "37.88116800",
        "lon": "41.13509000"
    },
    {
        "plateNumber": "73",
        "name": "ŞIRNAK",
        "lat": "37.51638890",
        "lon": "42.46111110"
    },
    {
        "plateNumber": "74",
        "name": "BARTIN",
        "lat": "41.63444440",
        "lon": "32.33750000"
    },
    {
        "plateNumber": "75",
        "name": "ARDAHAN",
        "lat": "41.11048100",
        "lon": "42.70217100"
    },
    {
        "plateNumber": "76",
        "name": "IĞDIR",
        "lat": "39.91666670",
        "lon": "44.03333330"
    },
    {
        "plateNumber": "77",
        "name": "YALOVA",
        "lat": "40.65000000",
        "lon": "29.26666670"
    },
    {
        "plateNumber": "78",
        "name": "KARABÜK",
        "lat": "41.20000000",
        "lon": "32.63333330"
    },
    {
        "plateNumber": "79",
        "name": "KİLİS",
        "lat": "36.71839900",
        "lon": "37.12122000"
    },
    {
        "plateNumber": "80",
        "name": "OSMANİYE",
        "lat": "37.06805000",
        "lon": "36.26158900"
    },
    {
        "plateNumber": "81",
        "name": "DÜZCE",
        "lat": "40.84384900",
        "lon": "31.15654000"
    }
]